{
  "name": "B6",
  "meter_g_zones": [
    "AB",
    "DE",
    "DF",
    "MS"
  ],
  "route": [
    {
      "title": "BOYLSTON ST, FAIRFIELD ST to GLOUCESTER ST",
      "coords": [
        {
          "lat": 42.3488891,
          "lng": -71.08178869999999
        },
        {
          "lat": 42.3483614,
          "lng": -71.0837413
        }
      ]
    },
    {
      "title": "FAIRFIELD ST (WS), BOYLSTON ST to BEACON ST",
      "coords": [
        {
          "lat": 42.34892768227399,
          "lng": -71.08179310384915
        },
        {
          "lat": 42.35241685148596,
          "lng": -71.08352570212274
        }
      ]
    },
    {
      "title": "COMM AVE (IN), FAIRFIELD ST to GLOUCESTER ST",
      "coords": [
        {
          "lat": 42.350837915159055,
          "lng": -71.08279930425152
        },
        {
          "lat": 42.350330868521745,
          "lng": -71.08466963884943
        }
      ]
    },
    {
      "title": "GLOUCESTER ST (ES), BOYLSTON ST to BEACON ST",
      "coords": [
        {
          "lat": 42.34838373955454,
          "lng": -71.0837027400068
        },
        {
          "lat": 42.35192958774287,
          "lng": -71.08545968712208
        }
      ]
    },
    {
      "title": "MARLBOROUGH ST, FAIRFIELD ST to GLOUCESTER ST",
      "coords": [
        {
          "lat": 42.3516577,
          "lng": -71.0831525
        },
        {
          "lat": 42.3511402,
          "lng": -71.085105
        }
      ]
    },
    {
      "title": "COMM AVE (OUT), FAIRFIELD ST to GLOUCESTER ST",
      "coords": [
        {
          "lat": 42.35085108599845,
          "lng": -71.0827890227366
        },
        {
          "lat": 42.3503297463501,
          "lng": -71.08467072070846
        }
      ]
    },
    {
      "title": "NEWBURY ST, FAIRFIELD ST to GLOUCESTER ST",
      "coords": [
        {
          "lat": 42.3496915,
          "lng": -71.08218889999999
        },
        {
          "lat": 42.3491671,
          "lng": -71.084138
        }
      ]
    },
    {
      "title": "BEACON ST, FAIRFIELD ST to GLOUCESTER ST",
      "coords": [
        {
          "lat": 42.3524435,
          "lng": -71.08354829999999
        },
        {
          "lat": 42.3519192,
          "lng": -71.0854911
        }
      ]
    }
  ]
}