{
  "name": "B9B",
  "route": [
    {
      "title": "BOYLSTON ST (SS), MASS AVE to DALTON",
      "coords": [
        {
          "lat": 42.3529238,
          "lng": -71.064504
        },
        {
          "lat": 42.3301327,
          "lng": -71.1258976
        }
      ]
    },
    {
      "title": "CAMBRIA, BOYLSTON ST to DEAD END",
      "coords": [
        {
          "lat": 42.3473678,
          "lng": -71.0873421
        },
        {
          "lat": 42.3473678,
          "lng": -71.0873421
        }
      ]
    },
    {
      "title": "MASS AVE (ES), BOYLSTON ST to HUNTINGTON AVE",
      "coords": [
        {
          "lat": 42.3414982,
          "lng": -71.08342
        },
        {
          "lat": 42.3414982,
          "lng": -71.08342
        }
      ]
    },
    {
      "title": "ST CECILIA, BOYLSTON ST to BELVIDERE",
      "coords": [
        {
          "lat": 42.34751259999999,
          "lng": -71.0867301
        },
        {
          "lat": 42.3463979,
          "lng": -71.0866705
        }
      ]
    },
    {
      "title": "CLEARWAY, MASS AVE to BELVIDERE",
      "coords": [
        {
          "lat": 42.345417,
          "lng": -71.08680149999999
        },
        {
          "lat": 42.3459288,
          "lng": -71.083423
        }
      ]
    },
    {
      "title": "DALTON ST, BOYLSTON ST to BELVIDERE",
      "coords": [
        {
          "lat": 42.3478365,
          "lng": -71.0855507
        },
        {
          "lat": 42.34606120000001,
          "lng": -71.08438509999999
        }
      ]
    },
    {
      "title": "SCOTIA, ST CECILIA to DALTON",
      "coords": [
        {
          "lat": 42.34697200000001,
          "lng": -71.08651189999999
        },
        {
          "lat": 42.3467515,
          "lng": -71.0850229
        }
      ]
    },
    {
      "title": "ST GERMAIN, MASS AVE to DALTON",
      "coords": [
        {
          "lat": 42.3459257,
          "lng": -71.08706649999999
        },
        {
          "lat": 42.34551829999999,
          "lng": -71.084184
        }
      ]
    },
    {
      "title": "BELVIDERE, MASS AVE to HUNTINGTON AVE",
      "coords": [
        {
          "lat": 42.3464843,
          "lng": -71.0873373
        },
        {
          "lat": 42.3454176,
          "lng": -71.08180329999999
        }
      ]
    }
  ]
}